<?xml version="1.0" encoding="UTF-8"?>
        <kml xmlns="http://www.opengis.net/kml/2.2">
        <Document> <Placemark><name>Arriondas</name><Point> <coordinates>-5.823948,43.382945,232</coordinates></Point></Placemark>
 <Placemark><name>Ferrol</name><Point> <coordinates>-8.22275,43.4883,15</coordinates></Point></Placemark>
 <Placemark><name>Monforte</name><Point> <coordinates>-7.4942300,42.5120100,360</coordinates></Point></Placemark>
 <Placemark><name>Ferrol</name><Point> <coordinates>-8.22275,43.4883,15</coordinates></Point></Placemark>
 <Placemark><name>Ferrol</name><Point> <coordinates>-8.22275,43.4883,15</coordinates></Point></Placemark>
 <Placemark><name>Ferrol</name><Point> <coordinates>-8.22275,43.4883,15</coordinates></Point></Placemark>
 <Placemark><name>Ferrol</name><Point> <coordinates>-8.22275,43.4883,15</coordinates></Point></Placemark>
 <Placemark><name>Ferrol</name><Point> <coordinates>-8.22275,43.4883,15</coordinates></Point></Placemark>
 <Placemark><name>Monforte</name><Point> <coordinates>-7.4942300,42.5120100,360</coordinates></Point></Placemark>
 <Placemark><name>Ferrol</name><Point> <coordinates>-8.22275,43.4883,15</coordinates></Point></Placemark>
 <Placemark><name>Monforte</name><Point> <coordinates>-7.4942300,42.5120100,360</coordinates></Point></Placemark>
 <Placemark><name>Ferrol</name><Point> <coordinates>-8.22275,43.4883,15</coordinates></Point></Placemark>
 <Placemark><name>Monforte</name><Point> <coordinates>-7.4942300,42.5120100,360</coordinates></Point></Placemark>
 <Placemark><name>Monforte</name><Point> <coordinates>-7.4942300,42.5120100,360</coordinates></Point></Placemark>
 <Placemark><name>Villanueva</name><Point> <coordinates>-5.150874,43.36623576,69</coordinates></Point></Placemark>
 <Placemark><name>Corao</name><Point> <coordinates>-5.06545,43.34657731,80</coordinates></Point></Placemark>
 <Placemark><name>Villanueva</name><Point> <coordinates>-5.150874,43.36623576,69</coordinates></Point></Placemark>
 <Placemark><name>Corao</name><Point> <coordinates>-5.06545,43.34657731,80</coordinates></Point></Placemark>
 <Placemark><name>Corao</name><Point> <coordinates>-5.06545,43.34657731,80</coordinates></Point></Placemark>
 <Placemark><name>Oviedo</name><Point> <coordinates>-5.8555264,43.3639746,232</coordinates></Point></Placemark>
 <Placemark><name>Oviedo</name><Point> <coordinates>-5.8555264,43.3639746,232</coordinates></Point></Placemark>
 <Placemark><name>Villanueva</name><Point> <coordinates>-5.150874,43.36623576,69</coordinates></Point></Placemark>
 <Placemark><name>Oviedo</name><Point> <coordinates>-5.8555264,43.3639746,232</coordinates></Point></Placemark>
 <Placemark><name>Villanueva</name><Point> <coordinates>-5.150874,43.36623576,69</coordinates></Point></Placemark>
 <Placemark><name>?</name><Point> <coordinates>0,0,0</coordinates></Point></Placemark>
 <Placemark><name>Villanueva</name><Point> <coordinates>-5.150874,43.36623576,69</coordinates></Point></Placemark>
 <Placemark><name>Villanueva</name><Point> <coordinates>-5.150874,43.36623576,69</coordinates></Point></Placemark>
 
        </Document>
        </kml>